{"Hospitals": [{"Name": "Kaiser Permanente San Francisco Medical Center", "Type": "Hospital", "Location": [37.7824588, -122.4430966], "Address": "2425 Geary Blvd"}, {"Name": "UCSF Medical Center at Mount Zion", "Type": "Hospital", "Location": [37.7824588, -122.4430966], "Address": "2425 Geary Blvd"}, {"Name": "California Pacific Medical Center - California Campus", "Type": "Hospital", "Location": [37.784695, -122.4392274], "Address": "1600 Divisadero St"}, {"Name": "California Pacific Medical Center - Pacific Campus", "Type": "Hospital", "Location": [37.784695, -122.4392274], "Address": "1600 Divisadero St"}, {"Name": "St. Mary's Medical Center", "Type": "Hospital", "Location": [37.7865706, -122.4560109], "Address": "3700 California St"}, {"Name": "California Pacific Medical Center - Davies Campus", "Type": "Hospital", "Location": [37.7865706, -122.4560109], "Address": "3700 California St"}, {"Name": "UCSF Medical Center at Parnassus", "Type": "Hospital", "Location": [37.7908706, -122.4312411], "Address": "2333 Buchanan St"}, {"Name": "Saint Francis Memorial Hospital", "Type": "Hospital", "Location": [37.7908706, -122.4312411], "Address": "2333 Buchanan St"}, {"Name": "San Francisco General Hospital", "Type": "Hospital", "Location": [37.7740749, -122.4538893], "Address": "450 Stanyan St"}, {"Name": "California Pacific Medical Center - Saint Luke's", "Type": "Hospital", "Location": [37.7740749, -122.4538893], "Address": "450 Stanyan St"}, {"Name": "Chinese Hospital", "Type": "Hospital", "Location": [37.7690507, -122.4358075], "Address": "Castro and Duboce Streets"}, {"Name": "Kaiser Permanente South San Francisco Medical Center", "Type": "Hospital", "Location": [37.7690507, -122.4358075], "Address": "Castro and Duboce Streets"}, {"Name": "Alta Bates Summit Medical Center - Summit", "Type": "Hospital", "Location": [37.7630895, -122.4578144], "Address": "505 Parnassus Avenue"}, {"Name": "Seton Medical Center", "Type": "Hospital", "Location": [37.7630895, -122.4578144], "Address": "505 Parnassus Avenue"}, {"Name": "Kaiser Permanente Richmond Medical Center", "Type": "Hospital", "Location": [37.7893799, -122.4167294], "Address": "900 Hyde St"}, {"Name": "Kaiser Permanente Oakland Medical Center", "Type": "Hospital", "Location": [37.7893799, -122.4167294], "Address": "900 Hyde St"}, {"Name": "Mills-Peninsula Medical Center", "Type": "Hospital", "Location": [37.7557265, -122.4047381], "Address": "1001 Potrero Ave"}, {"Name": "Alta Bates Summit Medical Center - Alta Bates Camp", "Type": "Hospital", "Location": [37.7557265, -122.4047381], "Address": "1001 Potrero Ave"}, {"Name": "Marin General Hospital", "Type": "Hospital", "Location": [29.4250844, -98.5386226], "Address": "3555 Cesar Chavez"}, {"Name": "Mills Health Center", "Type": "Hospital", "Location": [29.4250844, -98.5386226], "Address": "3555 Cesar Chavez"}, {"Name": "Alameda Hospital", "Type": "Hospital", "Location": [37.7955406, -122.4091299], "Address": "845 Jackson St"}, {"Name": "Kaiser Foundation Hospital - San Leandro", "Type": "Hospital", "Location": [37.7955406, -122.4091299], "Address": "845 Jackson St"}, {"Name": "Kaiser Permanente San Rafael Medical Center", "Type": "Hospital", "Location": [37.659206, -122.4391154], "Address": "1200 El Camino Real"}], "FireDepartments": [{"Type": "FireDepartment", "Location": [37.7802841, -122.4034164], "Address": "935 Folsom at 5th Street"}, {"Type": "FireDepartment", "Location": [37.7974619, -122.4102964], "Address": "1340 Powell Street at Broadway"}, {"Type": "FireDepartment", "Location": [37.7868385, -122.419944], "Address": "1067 Post Street at Polk Street "}, {"Type": "FireDepartment", "Location": [37.7729306, -122.3898089], "Address": "449 Mission Rock at 3rd Street "}, {"Type": "FireDepartment", "Location": [37.7807173, -122.4305361], "Address": "1301 Turk Street at Webster Street"}, {"Type": "FireDepartment", "Location": [37.766799, -122.4311397], "Address": "135 Sanchez Street at Henry Street"}, {"Type": "FireDepartment", "Location": [37.7605032, -122.4148679], "Address": "2300 Folsom Street at 19th Street"}, {"Type": "FireDepartment", "Location": [37.7777318, -122.3957901], "Address": "36 Bluxome Street at 4th Street"}, {"Type": "FireDepartment", "Location": [37.74498680000001, -122.40035], "Address": "2245 Jerrold Avenue at Upton Street"}, {"Type": "FireDepartment", "Location": [37.7853616, -122.4464454], "Address": "655 Presidio Avenue at Bush Street"}, {"Type": "FireDepartment", "Location": [37.7485009, -122.4271543], "Address": "3880 26th Street at Church Street"}, {"Type": "FireDepartment", "Location": [37.76367949999999, -122.4524253], "Address": "1145 Stanyan Street at Grattan Street"}, {"Type": "FireDepartment", "Location": [31.1167928, -86.054386], "Address": "530 Sansome Street at Washington Street"}, {"Type": "FireDepartment", "Location": [37.77998789999999, -122.4858249], "Address": "551 26th Avenue at Geary Boulevard"}, {"Type": "FireDepartment", "Location": [37.7231477, -122.4523505], "Address": "1000 Ocean Avenue at Phelan Avenue"}, {"Type": "FireDepartment", "Location": [37.7989672, -122.4358938], "Address": "2251 Greenwich Street at Fillmore Street"}, {"Type": "FireDepartment", "Location": [37.7278722, -122.3851478], "Address": "1295 Shafter Avenue at Ingalls Street"}, {"Type": "FireDepartment", "Location": [37.7517697, -122.4903074], "Address": "1935 32nd Avenue at Ortega Street"}, {"Type": "FireDepartment", "Location": [37.7300704, -122.4759811], "Address": "390 Buckingham Way at Winston Street"}, {"Type": "FireDepartment", "Location": [37.7511719, -122.4561885], "Address": "285 Olympia Way at Clarendon Avenue"}, {"Type": "FireDepartment", "Location": [37.7757223, -122.4396781], "Address": "1443 Grove Street at Broderick Street"}, {"Type": "FireDepartment", "Location": [32.7981334, -96.9540073], "Address": "1290 16th Avenue at Irving Street"}, {"Type": "FireDepartment", "Location": [37.7604706, -122.5048736], "Address": "1348 45th Avenue at Judah Street"}, {"Type": "FireDepartment", "Location": [37.7533063, -122.4408811], "Address": "100 Hoffman Avenue at Alvarado Street"}, {"Type": "FireDepartment", "Location": [37.7460628, -122.3871023], "Address": "3305 3rd Street at Cargo Way"}, {"Type": "FireDepartment", "Location": [37.7401397, -122.433781], "Address": "80 Digby Street at Addison Street"}, {"Type": "FireDepartment", "Location": [39.7583943, -75.2499926], "Address": "1814 Stockton Street at Greenwich Street"}, {"Type": "FireDepartment", "Location": [37.7659739, -122.4046618], "Address": "299 Vermont Street at 16th Street"}, {"Type": "FireDepartment", "Location": [37.7807947, -122.4707284], "Address": "441 12th Avenue at Geary Boulevard"}, {"Type": "FireDepartment", "Location": [37.7364706, -122.4193209], "Address": "194 Park Street at Holly Park Circle"}, {"Type": "FireDepartment", "Location": [37.5412839, -77.4347928], "Address": "8 Capital Street at Broad Street"}, {"Type": "FireDepartment", "Location": [37.7794818, -122.5019016], "Address": "499 41st Avenue at Geary Boulevard"}, {"Type": "FireDepartment", "Location": [37.7894745, -122.3886065], "Address": "Pier 22\u00bd, The Embarcadero at Harrison Street"}, {"Type": "FireDepartment", "Location": [40.727754, -73.95724299999999], "Address": "109 Oak Street at Franklin Street"}, {"Type": "FireDepartment", "Location": [37.7573061, -122.3989451], "Address": "798 Wisconsin Street at 22nd Street"}, {"Type": "FireDepartment", "Location": [37.7895436, -122.4289281], "Address": "2150 California Street at Laguna Street"}, {"Type": "FireDepartment", "Location": [37.7400312, -122.4586575], "Address": "1091 Portola Drive at Miraloma Drive"}, {"Type": "FireDepartment", "Location": [37.7468306, -122.4749084], "Address": "2155 18th Avenue at Rivera Street"}, {"Type": "FireDepartment", "Location": [37.7947779, -122.4164947], "Address": "1325 Leavenworth Street at Jackson Street"}, {"Type": "FireDepartment", "Location": [37.7324458, -122.4056325], "Address": "2430 San Bruno Avenue at Silver Avenue"}, {"Type": "FireDepartment", "Location": [37.7166063, -122.4311834], "Address": "720 Moscow Street at France Avenue"}, {"Type": "FireDepartment", "Location": [37.7165849, -122.4001493], "Address": "1298 Girard Street at Wilde Avenue"}, {"Type": "FireDepartment", "Location": [37.826242, -122.369848], "Address": "800 Avenue I at 10th Street, Treasure Island"}, {"Type": "FireDepartment", "Location": [37.7408608, -122.3847808], "Address": "1415 Evans Avenue at Mendell Street"}, {"Type": "FireDepartment", "Location": [37.8013114, -122.4555794], "Address": "218 Lincoln Blvd at Keyes Avenue"}]}
